{"type":"FeatureCollection", "features":[
{"type":"Feature","geometry":{"type":"Point","coordinates":[-35.0237274,-8.279785,0]},"properties":{"name":"Estação Santo Inácio"}},
{"type":"Feature","geometry":{"type":"Point","coordinates":[-34.977422,-8.245512,0]},"properties":{"name":"Estação Ponte dos Carvalhos"}},
{"type":"Feature","geometry":{"type":"Point","coordinates":[-34.96562,-8.222236,0]},"properties":{"name":"Estação Pontezinha"}},
{"type":"Feature","geometry":{"type":"Point","coordinates":[-34.95914,-8.197133,0]},"properties":{"name":"Estação Ângelo de Souza"}},
{"type":"Feature","geometry":{"type":"Point","coordinates":[-34.938937,-8.176741,0]},"properties":{"name":"Estação Cajueiro Seco"}},
{"type":"Feature","geometry":{"type":"Point","coordinates":[-34.92661,-8.160745,0]},"properties":{"name":"Estação Prazeres"}},
{"type":"Feature","geometry":{"type":"Point","coordinates":[-34.920224,-8.154139,0]},"properties":{"name":"Estação Monte dos Guararapes"}},
{"type":"Feature","geometry":{"type":"Point","coordinates":[-34.917729,-8.146782,0]},"properties":{"name":"Estação Porta larga"}},
{"type":"Feature","geometry":{"type":"Point","coordinates":[-34.914452,-8.134063,0]},"properties":{"name":"Estação Aeroporto"}},
{"type":"Feature","geometry":{"type":"Point","coordinates":[-34.968495,-8.138299,0]},"properties":{"name":"Estação Marcos Freire"}},
{"type":"Feature","geometry":{"type":"Point","coordinates":[-34.983492,-8.106172,0]},"properties":{"name":"Estação Jorge Lins"}},
{"type":"Feature","geometry":{"type":"Point","coordinates":[-34.993177,-8.10687,0]},"properties":{"name":"Estaçao Floriano"}},
{"type":"Feature","geometry":{"type":"Point","coordinates":[-35.015359,-8.11109,0]},"properties":{"name":"Estação Jaboatão"}},
{"type":"Feature","geometry":{"type":"Point","coordinates":[-35.005392,-8.108007,0]},"properties":{"name":"Estação Engenho Velho"}},
{"type":"Feature","geometry":{"type":"Point","coordinates":[-34.975145,-8.08475,0]},"properties":{"name":"Estação Alto do Céu"}},
{"type":"Feature","geometry":{"type":"Point","coordinates":[-34.964756,-8.091405,0]},"properties":{"name":"Estação Coqueiral"}},
{"type":"Feature","geometry":{"type":"Point","coordinates":[-34.956573,-8.090345,0]},"properties":{"name":"Estação Tejipio"}},
{"type":"Feature","geometry":{"type":"Point","coordinates":[-34.936301,-8.085956,0]},"properties":{"name":"Estação Werneck"}},
{"type":"Feature","geometry":{"type":"Point","coordinates":[-34.930161,-8.08414,0]},"properties":{"name":"Estação Santa Luzia"}},
{"type":"Feature","geometry":{"type":"Point","coordinates":[-34.921093,-8.07933,0]},"properties":{"name":"Estação Mangueira"}},
{"type":"Feature","geometry":{"type":"Point","coordinates":[-34.913392,-8.077724,0]},"properties":{"name":"Estação Ipiranga"}},
{"type":"Feature","geometry":{"type":"Point","coordinates":[-34.895459,-8.073164,0]},"properties":{"name":"Estação Joana Bezerra"}},
{"type":"Feature","geometry":{"type":"Point","coordinates":[-34.886307,-8.068928,0]},"properties":{"name":"Estação Recife"}},
{"type":"Feature","geometry":{"type":"Point","coordinates":[-34.906558,-8.077139,0]},"properties":{"name":"Estação Afogados"}},
{"type":"Feature","geometry":{"type":"Point","coordinates":[-34.945871,-8.088933,0]},"properties":{"name":"Estação Barro"}},
{"type":"Feature","geometry":{"type":"Point","coordinates":[-34.910613,-8.116164,0]},"properties":{"name":"Estação Shopping"}},
{"type":"Feature","geometry":{"type":"Point","coordinates":[-34.972833,-8.093922,0]},"properties":{"name":"Estação Cavaleiro"}},
{"type":"Feature","geometry":{"type":"Point","coordinates":[-34.981086,-8.064084,0]},"properties":{"name":"Estação Rodoviaria"}},
{"type":"Feature","geometry":{"type":"Point","coordinates":[-34.995323,-8.024645,0]},"properties":{"name":"Estação Camaragibe"}},
{"type":"Feature","geometry":{"type":"Point","coordinates":[-34.904884,-8.082015,0]},"properties":{"name":"Estação largo da Paz"}},
{"type":"Feature","geometry":{"type":"Point","coordinates":[-34.907872,-8.089852,0]},"properties":{"name":"Estação Imbiribeira"}},
{"type":"Feature","geometry":{"type":"Point","coordinates":[-34.909114,-8.10972,0]},"properties":{"name":"Estação Antônio Falcão"}},
{"type":"Feature","geometry":{"type":"Point","coordinates":[-34.911957,-8.122019,0]},"properties":{"name":"Estação Tancredo Neves"}},
{"type":"Feature","geometry":{"type":"Point","coordinates":[-34.9786287,-8.075913,0]},"properties":{"name":"Estação Curado"}},
{"type":"Feature","geometry":{"type":"Point","coordinates":[-35.0365594,-8.2865795,0]},"properties":{"name":"Estação Cabo"}},
{"type":"Feature","geometry":{"type":"Point","coordinates":[-34.9883652,-8.0364535,0]},"properties":{"name":"Estação Cosme e Damião\n"}},
{"type":"Feature","geometry":{"type":"LineString","coordinates":[[-35.0366954,-8.2864397,0],[-35.02644,-8.28102,0],[-35.02135,-8.2784,0],[-35.01113,-8.27519,0],[-35.00404,-8.27287,0],[-35.0004,-8.27148,0],[-34.99798,-8.27001,0],[-34.99648,-8.26892,0],[-34.99395,-8.26682,0],[-34.99185,-8.26452,0],[-34.98916,-8.2605,0],[-34.98864,-8.25997,0],[-34.98468,-8.25395,0],[-34.98185,-8.2498,0],[-34.98044,-8.24836,0],[-34.97909,-8.24717,0],[-34.97754,-8.24563,0],[-34.97643,-8.24405,0],[-34.97578,-8.24244,0],[-34.97533,-8.24079,0],[-34.97377,-8.23741,0],[-34.97279,-8.23594,0],[-34.96858,-8.23062,0],[-34.96648,-8.22713,0],[-34.96587,-8.22568,0],[-34.96563,-8.22424,0],[-34.96528,-8.22283,0],[-34.96515,-8.22003,0],[-34.96192,-8.20695,0],[-34.95993,-8.20243,0],[-34.95714,-8.19587,0],[-34.95477,-8.19069,0],[-34.95377,-8.18877,0],[-34.95199,-8.18663,0],[-34.95008,-8.18485,0],[-34.94941,-8.1844,0],[-34.94877,-8.18409,0],[-34.945,-8.18301,0],[-34.94353,-8.18227,0],[-34.94282,-8.18155,0],[-34.93886,-8.17613,0]]},"properties":{"name":"Linha Sul (diesel) - 17,6 km\nCajueiro Seco - Cabo\nOperação em VLT","tessellate":true}},
{"type":"Feature","geometry":{"type":"LineString","coordinates":[[-34.9388,-8.17597,0],[-34.93637,-8.17273,0],[-34.93539,-8.17081,0],[-34.93498,-8.16952,0],[-34.93172,-8.1661,0],[-34.92556,-8.15981,0],[-34.92034,-8.15467,0],[-34.91888,-8.1524,0],[-34.91813,-8.1494,0],[-34.91695,-8.14428,0],[-34.91526,-8.13657,0],[-34.91146,-8.12039,0],[-34.90983,-8.1128,0],[-34.90745,-8.10293,0],[-34.9076,-8.09906,0],[-34.90837,-8.09447,0],[-34.90734,-8.08808,0],[-34.90607,-8.08338,0],[-34.90453,-8.08081,0],[-34.90328,-8.07992,0],[-34.90007,-8.07881,0],[-34.89906,-8.07705,0],[-34.8985,-8.07471,0],[-34.89708,-8.07357,0],[-34.89438,-8.07267,0],[-34.8897,-8.07289,0],[-34.8885,-8.07269,0],[-34.88704,-8.07136,0],[-34.885685,-8.0689372,0]]},"properties":{"name":"Linha Sul - 14,5 km\nRecife - Cajueiro Seco\nTrecho duplicado em bitola larga e eletrificado\n","tessellate":true}},
{"type":"Feature","geometry":{"type":"LineString","coordinates":[[-34.981086,-8.064084,0],[-34.98068,-8.06653,0],[-34.98017,-8.07111,0],[-34.97976,-8.07281,0],[-34.97915,-8.07419,0],[-34.97845,-8.07548,0],[-34.97704,-8.07844,0],[-34.97638,-8.08059,0],[-34.97674,-8.08154,0],[-34.9768,-8.08191,0],[-34.97637,-8.08256,0],[-34.97573,-8.08329,0],[-34.97516,-8.0852,0],[-34.97436,-8.08701,0],[-34.97313,-8.0881,0],[-34.96782,-8.09012,0],[-34.96609,-8.09097,0],[-34.96505,-8.09133,0]]},"properties":{"name":"Linha Centro 20,7 km\nRecife - Rodoviária - Camaragibe\nRecife - Jaboatão","tessellate":true}},
{"type":"Feature","geometry":{"type":"LineString","coordinates":[[-34.9416,-8.1796324,0],[-34.942523,-8.176946,0],[-34.943928,-8.17514,0],[-34.945452,-8.173059,0],[-34.945924,-8.171636,0],[-34.947039,-8.167324,0],[-34.948595,-8.160793,0],[-34.949979,-8.155281,0],[-34.952316,-8.15372,0],[-34.952157,-8.151999,0],[-34.954882,-8.149918,0],[-34.956888,-8.148399,0],[-34.960011,-8.145181,0],[-34.963154,-8.141984,0],[-34.966577,-8.139074,0],[-34.969152,-8.137789,0],[-34.97045,-8.136939,0],[-34.971469,-8.135813,0],[-34.972263,-8.133923,0],[-34.972306,-8.132128,0],[-34.971673,-8.129643,0],[-34.970267,-8.125075,0],[-34.968873,-8.120668,0],[-34.96869,-8.120137,0],[-34.968787,-8.117619,0],[-34.969345,-8.116207,0],[-34.970868,-8.11456,0],[-34.972531,-8.113636,0],[-34.974452,-8.113222,0],[-34.976211,-8.112808,0],[-34.977659,-8.111841,0],[-34.978518,-8.110896,0],[-34.979247,-8.109526,0],[-34.980556,-8.107826,0],[-34.984086,-8.105532,0],[-34.985931,-8.103185,0],[-34.987916,-8.099849,0],[-34.98827,-8.097651,0],[-34.988217,-8.094613,0],[-34.987906,-8.093211,0],[-34.987326,-8.092138,0],[-34.984215,-8.088941,0],[-34.981543,-8.086158,0],[-34.97943,-8.083385,0],[-34.979097,-8.082461,0],[-34.977863,-8.080655,0],[-34.977788,-8.079381,0],[-34.978357,-8.077129,0],[-34.978335,-8.076449,0],[-34.978625,-8.075663,0],[-34.978624,-8.075668,0],[-34.97861,-8.075674,0],[-34.978624,-8.075668,0]]},"properties":{"name":"Linha sul - Trem Diesel Existente: 31 km","tessellate":true}},
{"type":"Feature","geometry":{"type":"LineString","coordinates":[[-34.8859637,-8.069013,0],[-34.8873092,-8.0709173,0],[-34.8888234,-8.0723701,0],[-34.889747,-8.0724656,0],[-34.8925924,-8.0723249,0],[-34.8944937,-8.0722691,0],[-34.8956152,-8.0725876,0],[-34.8966508,-8.0729061,0],[-34.8977471,-8.0729583,0],[-34.8991008,-8.0736053,0],[-34.901913,-8.074824,0],[-34.903426,-8.075328,0],[-34.905518,-8.076555,0],[-34.9082,-8.078175,0],[-34.908989,-8.078366,0],[-34.909772,-8.078313,0],[-34.913098,-8.077766,0],[-34.914117,-8.077628,0],[-34.915051,-8.077649,0],[-34.918189,-8.078451,0],[-34.921713,-8.079381,0],[-34.9224,-8.079572,0],[-34.923263,-8.07997,0],[-34.924304,-8.080905,0],[-34.925479,-8.082302,0],[-34.926251,-8.082881,0],[-34.927566,-8.08329,0],[-34.930039,-8.084033,0],[-34.931847,-8.084548,0],[-34.93477,-8.085451,0],[-34.937066,-8.086152,0],[-34.938236,-8.086482,0],[-34.938874,-8.086535,0],[-34.940403,-8.086306,0],[-34.941417,-8.086322,0],[-34.942559,-8.0868,0],[-34.944093,-8.087709,0],[-34.946068,-8.08902,0],[-34.946845,-8.089451,0],[-34.947425,-8.089626,0],[-34.94795,-8.089737,0],[-34.948535,-8.089732,0],[-34.9503,-8.08944,0],[-34.95147,-8.089265,0],[-34.953052,-8.089323,0],[-34.955547,-8.090003,0],[-34.959178,-8.091017,0],[-34.961619,-8.091671,0],[-34.961984,-8.091782,0],[-34.962885,-8.091915,0],[-34.9637,-8.091756,0],[-34.966012,-8.091039,0],[-34.966704,-8.090932,0],[-34.967654,-8.091039,0],[-34.969639,-8.091644,0],[-34.971629,-8.09243,0],[-34.972112,-8.092876,0],[-34.972702,-8.093742,0],[-34.973292,-8.094698,0],[-34.974064,-8.09525,0],[-34.976554,-8.095866,0],[-34.977229,-8.096095,0],[-34.977514,-8.096238,0],[-34.979273,-8.096599,0],[-34.980872,-8.096721,0],[-34.982771,-8.096743,0],[-34.983742,-8.097035,0],[-34.984659,-8.097683,0],[-34.985641,-8.09875,0],[-34.986344,-8.099196,0],[-34.988092,-8.099945,0],[-34.989069,-8.100694,0],[-34.98968,-8.101878,0],[-34.989847,-8.102824,0],[-34.989755,-8.10396,0],[-34.989911,-8.104937,0],[-34.990227,-8.105622,0],[-34.990919,-8.106355,0],[-34.991864,-8.10678,0],[-34.993666,-8.106908,0],[-34.994889,-8.107141,0],[-34.996456,-8.107784,0],[-34.997534,-8.10797,0],[-34.998022,-8.107943,0],[-35.000055,-8.107391,0],[-35.000881,-8.107242,0],[-35.002029,-8.107311,0],[-35.004813,-8.107938,0],[-35.007163,-8.108549,0],[-35.00741,-8.108798,0],[-35.009019,-8.109531,0],[-35.01007,-8.109733,0],[-35.010988,-8.109993,0],[-35.012061,-8.110551,0],[-35.013745,-8.110938,0],[-35.015521,-8.111262,0]]},"properties":{"name":"Linha Centro 20,7 km\nRecife - Rodoviária - Camaragibe\nRecife - Jaboatão\n","tessellate":true}},
{"type":"Feature","geometry":{"type":"LineString","coordinates":[[-34.995323,-8.024645,0],[-34.986906,-8.0395556,0],[-34.986391,-8.0417652,0],[-34.985919,-8.0430825,0],[-34.9847603,-8.0470344,0],[-34.983859,-8.049584,0],[-34.9832583,-8.0525159,0],[-34.9822711,-8.0566376,0],[-34.9814129,-8.0591871,0],[-34.9810696,-8.0607593,0],[-34.981086,-8.064084,0]]},"properties":{"name":"Expansão - 4,7 km\nRodoviária - Camaragibe\n","tessellate":true}}
]}
